IP Address,Country,City,Latitude,Longitude
103.17.196.15,Japan,Tokyo,35.6895,139.6917
103.250.142.115,Singapore,Singapore,1.2897,103.8501
103.27.226.116,Australia,Melbourne,-37.814,144.9633
128.90.102.110,Brazil,Sal Paulo,-23.5475,-46.6361
128.90.103.107,Brazil,Sal Paulo,-23.5475,-46.6361
128.90.106.252,Argentina,Buenos Aires,-34.6132,-58.3772
128.90.108.24,Colombia,Bogota,4.6097,-74.0817
128.90.109.103,Mexico,Mexico City,19.4285,-99.1277
128.90.109.6,Mexico,Mexico City,19.4285,-99.1277
128.90.109.94,Mexico,Mexico City,19.4285,-99.1277
128.90.112.15,Panama,Panama City,8.9936,-79.5197
128.90.114.132,Costa Rica,San Jose,9.9333,-84.0833
128.90.115.16,Colombia,Bogota,4.6097,-74.0817
128.90.119.107,United States,Pittsburgh,40.4443,-79.9549
128.90.123.2,United States,Pittsburgh,40.4443,-79.9549
128.90.21.29,Iceland,Reykjavik,64.1355,-21.8954
128.90.25.95,Poland,Warsaw,52.2298,21.0118
128.90.63.143,Bahrain,Manama,26.2154,50.5832
157.55.39.77,United States,Seattle,47.6062,-122.3321
174.216.6.251,United States,Bedminster,40.7892,-74.3219
178.208.176.37,Israel,Jerusalem,31.779,35.2253
192.64.5.190,Canada,Toronto,43.6449,-79.3839
209.160.114.28,United States,Chicago,41.85,-87.65
209.160.124.113,United States,Los Angeles,34.0522,-118.2437
216.9.28.199,United States,Seattle,47.6062,-122.3321
216.9.30.180,United States,Seattle,47.6062,-122.3321
31.6.10.238,Israel,Jerusalem,31.779,35.2253
31.6.19.143,Ireland,Dublin,53.344,-6.2672
31.6.19.165,Ireland,Dublin,53.344,-6.2672
31.6.23.155,United Kingdon,London,51.5085,-0.1257
31.6.28.252,France,Paris,48.8534,2.3488
31.6.43.153,France,Paris,48.8534,2.3488
31.6.48.188,France,Paris,48.8534,2.3488
31.6.55.14,Austria,Vienna,48.2085,16.3721
43.249.129.151,Japan,Tokyo,35.6895,139.6917
45.120.202.53,Hong Kong,Hong Kong,22.2855,114.1577
45.254.253.206,Japan,Tokyo,35.6895,139.6917
45.254.253.215,Japan,Tokyo,35.6895,139.6917
45.254.253.227,Japan,Tokyo,35.6895,139.6917
69.167.25.12,United States,Seattle,47.6062,-122.3321
